[
  {
    "name": "Ratusz",
    "latitude": 54.464673,
    "longitude": 17.026731
  },
  {
    "name": "Nowa Brama",
    "latitude": 54.465636,
    "longitude": 17.028029
  },
  {
    "name": "Brama Młyńska",
    "latitude": 54.464458,
    "longitude": 17.035191
  },
  {
    "name": "Młyn Zamkowy",
    "latitude": 54.464192,
    "longitude": 17.034394
  },
  {
    "name": "Zamek Książąt Pomorskich",
    "latitude": 54.464047,
    "longitude": 17.034339
  },
  {
    "name": "Muzeum Pomorza Środkowego w Słupsku",
    "latitude": 54.464047,
    "longitude": 17.034370
  },
  {
    "name": "Biały Spichlerz",
    "latitude": 54.465697,
    "longitude": 17.035854
  },
  {
    "name": "Park im. Jerzego Waldorffa",
    "latitude": 54.46400154827569,
    "longitude": 17.030223959960676
  },
  {
    "name": "Park im. Henryka Sienkiewicza",
    "latitude": 54.46771509971244,
    "longitude": 17.02794886022025
  },
  {
    "name": "Park Stawek Łabędzi",
    "latitude": 54.47306363850396,
    "longitude": 17.03219762564293
  },
  {
    "name": "Spichlerz Richtera i Herbaciarnia",
    "latitude": 54.464824,
    "longitude": 17.035492
  },
  {
    "name": "Mury obronne",
    "latitude": 54.463754,
    "longitude": 17.032365
  },
  {
    "name": "Baszta Czarownic",
    "latitude": 54.465532,
    "longitude": 17.034008
  },
  {
    "name": "Budynek poczty i Heinrich von Stephan",
    "latitude": 54.465344,
    "longitude": 17.030341
  },
  {
    "name": "Słupskie tramwaje",
    "latitude": 54.465862,
    "longitude": 17.028999
  },
  {
    "name": "Park Kultury i Wypoczynku",
    "latitude": 54.460209,
    "longitude": 17.036364
  },
  {
    "name": "Skwer Pierwszych Słupszczan",
    "latitude": 54.466597,
    "longitude": 17.027049
  },
  {
    "name": "Najstarsza pizzeria w Polsce",
    "latitude": 54.467196,
    "longitude": 17.024339
  },
  {
    "name": "Pomnik Powstańców Warszawskich",
    "latitude": 54.468444,
    "longitude": 17.034108
  },
  {
    "name": "Pomnik Otwarta głowa",
    "latitude": 54.464375,
    "longitude": 17.025563
  },
  {
    "name": "Art Nouveau",
    "latitude": 54.468009,
    "longitude": 17.028763
  },
  {
    "name": "Budynek Starostwa Powiatowego",
    "latitude": 54.467380,
    "longitude": 17.034074
  },
  {
    "name": "Informacja turystyczna",
    "latitude": 54.465538,
    "longitude": 17.026545
  }
]

  